{"type":"FeatureCollection","features":[{"type":"Feature","properties":{"id":1,"name":"Argentina","yr2015":"5.00204E+12","yr2010":"1.31937E+12","yr2005":"4.37984E+11","yr2000":"2.61086E+11","yr1995":"2.3362E+11","yr1990":60722517750,"yr1985":4480247},"geometry":{"type":"Point","coordinates":[-65.0938568,-35.1811447]}},{"type":"Feature","properties":{"id":2,"name":"Australia","yr2015":"1.2774E+12","yr2010":"1.02698E+12","yr2005":"7.39024E+11","yr2000":"5.3861E+11","yr1995":"3.98879E+11","yr1990":"3.12183E+11","yr1985":"1.953E+11"},"geometry":{"type":"Point","coordinates":[134.3597107,-25.5789375]}},{"type":"Feature","properties":{"id":3,"name":"Brazil","yr2015":"5.02097E+12","yr2010":"3.07914E+12","yr2005":"1.72332E+12","yr2000":"9.8974E+11","yr1995":"5.91886E+11","yr1990":9430778,"yr1985":380},"geometry":{"type":"Point","coordinates":[-53.0680847,-10.776803]}},{"type":"Feature","properties":{"id":4,"name":"Canada","yr2015":"1.56263E+12","yr2010":"1.30414E+12","yr2005":"1.03983E+12","yr2000":"8.11418E+11","yr1995":"6.41969E+11","yr1990":"5.43016E+11","yr1985":"3.78611E+11"},"geometry":{"type":"Point","coordinates":[-96.3883514,62.5360413]}},{"type":"Feature","properties":{"id":5,"name":"China, People's Republic of","yr2015":"3.62266E+13","yr2010":"1.98998E+13","yr2005":"1.01448E+13","yr2000":"6.36677E+12","yr1995":"3.61979E+12","yr1990":"1.20014E+12","yr1985":"5.91794E+11"},"geometry":{"type":"Point","coordinates":[103.7358093,36.5631142]}},{"type":"Feature","properties":{"id":6,"name":"Cuba","yr2015":76616000000,"yr2010":54729000000,"yr2005":37065300000,"yr2000":27668600000,"yr1995":22620533972,"yr1990":18289021683,"yr1985":17360699496},"geometry":{"type":"Point","coordinates":[-78.9602737,21.6105175]}},{"type":"Feature","properties":{"id":7,"name":"Egypt","yr2015":"2.30194E+12","yr2010":"1.03445E+12","yr2005":"4.58459E+11","yr2000":"2.92051E+11","yr1995":"1.89605E+11","yr1990":81061348083,"yr1985":34944923921},"geometry":{"type":"Point","coordinates":[29.7768764,26.5784569]}},{"type":"Feature","properties":{"id":8,"name":"France","yr2015":"1.71157E+12","yr2010":"1.58316E+12","yr2005":"1.3679E+12","yr2000":"1.12643E+12","yr1995":"9.48878E+11","yr1990":"8.04644E+11","yr1985":"6.00085E+11"},"geometry":{"type":"Point","coordinates":[2.4519441,46.6218414]}},{"type":"Feature","properties":{"id":9,"name":"Germany","yr2015":"2.21828E+12","yr2010":"1.93961E+12","yr2005":"1.75155E+12","yr2000":"1.60445E+12","yr1995":"1.43918E+12","yr1990":"1.10308E+12","yr1985":"8.72313E+11"},"geometry":{"type":"Point","coordinates":[10.4006948,51.1218071]}},{"type":"Feature","properties":{"id":10,"name":"Iceland","yr2015":"1.68184E+12","yr2010":"1.27492E+12","yr2005":"8.71616E+11","yr2000":"5.79811E+11","yr1995":"3.63412E+11","yr1990":"2.96073E+11","yr1985":98938716200},"geometry":{"type":"Point","coordinates":[-18.5770988,64.9836426]}},{"type":"Feature","properties":{"id":11,"name":"Indonesia","yr2015":"7.75E+15","yr2010":"4.48E+15","yr2005":"2.13E+15","yr2000":"1.00E+15","yr1995":"3.37623E+14","yr1990":"1.4962E+14","yr1985":"7.35315E+13"},"geometry":{"type":"Point","coordinates":[113.9972305,-0.210123]}},{"type":"Feature","properties":{"id":12,"name":"Iran, Islamic Republic of","yr2015":"7.19E+15","yr2010":"2.71E+15","yr2005":"1.08E+15","yr2000":"3.98687E+14","yr1995":"1.26878E+14","yr1990":"2.99037E+13","yr1985":"1.3108E+13"},"geometry":{"type":"Point","coordinates":[54.3036728,32.5642624]}},{"type":"Feature","properties":{"id":13,"name":"Japan","yr2015":"4.06508E+14","yr2010":"3.86484E+14","yr2005":"3.86502E+14","yr2000":"3.75349E+14","yr1995":"3.52901E+14","yr1990":"2.93542E+14","yr1985":"2.22896E+14"},"geometry":{"type":"Point","coordinates":[137.9816895,36.6533356]}},{"type":"Feature","properties":{"id":14,"name":"Malaysia","yr2015":"7.78576E+11","yr2010":"4.98591E+11","yr2005":"3.02556E+11","yr2000":"1.9217E+11","yr1995":"1.3414E+11","yr1990":78113000000,"yr1985":52127000000},"geometry":{"type":"Point","coordinates":[114.7107239,3.6054671]}},{"type":"Feature","properties":{"id":15,"name":"Singapore","yr2015":"1.93658E+11","yr2010":"1.47357E+11","yr2005":"1.04596E+11","yr2000":86365500000,"yr1995":61165200000,"yr1990":38260900000,"yr1985":23793600000},"geometry":{"type":"Point","coordinates":[103.8519897,1.29018]}},{"type":"Feature","properties":{"id":16,"name":"South Africa","yr2015":"3.2462E+12","yr2010":"2.17775E+12","yr2005":"1.33517E+12","yr2000":"7.66531E+11","yr1995":"4.52205E+11","yr1990":"2.38426E+11","yr1985":95197391688},"geometry":{"type":"Point","coordinates":[25.0803165,-29.0023098]}},{"type":"Feature","properties":{"id":17,"name":"Switzerland","yr2015":"4.26775E+11","yr2010":"3.98525E+11","yr2005":"3.49787E+11","yr2000":"3.17752E+11","yr1995":"2.82737E+11","yr1990":"2.39517E+11","yr1985":"1.86528E+11"},"geometry":{"type":"Point","coordinates":[8.2291985,46.800209]}},{"type":"Feature","properties":{"id":18,"name":"United Kingdom","yr2015":"1.59651E+12","yr2010":"1.37183E+12","yr2005":"1.18168E+12","yr2000":"9.07402E+11","yr1995":"6.86524E+11","yr1990":"5.22E+11","yr1985":"3.26257E+11"},"geometry":{"type":"Point","coordinates":[-2.5505641,53.9438324]}},{"type":"Feature","properties":{"id":19,"name":"United States","yr2015":"1.49072E+13","yr2010":"1.2696E+13","yr2005":"1.07098E+13","yr2000":"8.20014E+12","yr1995":"6.10433E+12","yr1990":"4.75718E+12","yr1985":"3.40347E+12"},"geometry":{"type":"Point","coordinates":[-98.9899826,39.4959145]}},{"type":"Feature","properties":{"id":1,"name":"Argentina","yr2015":"5.00E+12","yr2010":"1.32E+12","yr2005":"4.38E+11","yr2000":"2.61E+11","yr1995":"2.34E+11","yr1990":60722517750,"yr1985":4480247},"geometry":{"type":"Point","coordinates":[-65.0938568,-35.1811447]}},{"type":"Feature","properties":{"id":2,"name":"Australia","yr2015":"1.28E+12","yr2010":"1.03E+12","yr2005":"7.39E+11","yr2000":"5.39E+11","yr1995":"3.99E+11","yr1990":"3.12E+11","yr1985":"1.95E+11"},"geometry":{"type":"Point","coordinates":[134.3597107,-25.5789375]}},{"type":"Feature","properties":{"id":3,"name":"Brazil","yr2015":"5.02E+12","yr2010":"3.08E+12","yr2005":"1.72E+12","yr2000":"9.90E+11","yr1995":"5.92E+11","yr1990":9430778,"yr1985":380},"geometry":{"type":"Point","coordinates":[-53.0680847,-10.776803]}},{"type":"Feature","properties":{"id":4,"name":"Canada","yr2015":"1.56E+12","yr2010":"1.30E+12","yr2005":"1.04E+12","yr2000":"8.11E+11","yr1995":"6.42E+11","yr1990":"5.43E+11","yr1985":"3.79E+11"},"geometry":{"type":"Point","coordinates":[-96.3883514,62.5360413]}},{"type":"Feature","properties":{"id":5,"name":"China","yr2015":"3.62E+13","yr2010":"1.99E+13","yr2005":"1.01E+13","yr2000":"6.37E+12","yr1995":"3.62E+12","yr1990":"1.20E+12","yr1985":"5.92E+11"},"geometry":{"type":"Point","coordinates":[103.7358093,36.5631142]}},{"type":"Feature","properties":{"id":6,"name":"Cuba","yr2015":76616000000,"yr2010":54729000000,"yr2005":37065300000,"yr2000":27668600000,"yr1995":22620533972,"yr1990":18289021683,"yr1985":17360699496},"geometry":{"type":"Point","coordinates":[-78.9602737,21.6105175]}},{"type":"Feature","properties":{"id":7,"name":"Egypt","yr2015":"2.30E+12","yr2010":"1.03E+12","yr2005":"4.58E+11","yr2000":"2.92E+11","yr1995":"1.90E+11","yr1990":81061348083,"yr1985":34944923921},"geometry":{"type":"Point","coordinates":[29.7768764,26.5784569]}},{"type":"Feature","properties":{"id":8,"name":"France","yr2015":"1.71E+12","yr2010":"1.58E+12","yr2005":"1.37E+12","yr2000":"1.13E+12","yr1995":"9.49E+11","yr1990":"8.05E+11","yr1985":"6.00E+11"},"geometry":{"type":"Point","coordinates":[2.4519441,46.6218414]}},{"type":"Feature","properties":{"id":9,"name":"Germany","yr2015":"2.22E+12","yr2010":"1.94E+12","yr2005":"1.75E+12","yr2000":"1.60E+12","yr1995":"1.44E+12","yr1990":"1.10E+12","yr1985":"8.72E+11"},"geometry":{"type":"Point","coordinates":[10.4006948,51.1218071]}},{"type":"Feature","properties":{"id":10,"name":"Iceland","yr2015":"1.68E+12","yr2010":"1.27E+12","yr2005":"8.72E+11","yr2000":"5.80E+11","yr1995":"3.63E+11","yr1990":"2.96E+11","yr1985":98938716200},"geometry":{"type":"Point","coordinates":[-18.5770988,64.9836426]}},{"type":"Feature","properties":{"id":11,"name":"Indonesia","yr2015":"7.75E+15","yr2010":"4.48E+15","yr2005":"2.13E+15","yr2000":"1.00E+15","yr1995":"3.38E+14","yr1990":"1.50E+14","yr1985":"7.35E+13"},"geometry":{"type":"Point","coordinates":[113.9972305,-0.210123]}},{"type":"Feature","properties":{"id":12,"name":"Iran","yr2015":"7.19E+15","yr2010":"2.71E+15","yr2005":"1.08E+15","yr2000":"3.99E+14","yr1995":"1.27E+14","yr1990":"2.99E+13","yr1985":"1.31E+13"},"geometry":{"type":"Point","coordinates":[54.3036728,32.5642624]}},{"type":"Feature","properties":{"id":13,"name":"Japan","yr2015":"4.07E+14","yr2010":"3.86E+14","yr2005":"3.87E+14","yr2000":"3.75E+14","yr1995":"3.53E+14","yr1990":"2.94E+14","yr1985":"2.23E+14"},"geometry":{"type":"Point","coordinates":[137.9816895,36.6533356]}},{"type":"Feature","properties":{"id":14,"name":"Malaysia","yr2015":"7.79E+11","yr2010":"4.99E+11","yr2005":"3.03E+11","yr2000":"1.92E+11","yr1995":"1.34E+11","yr1990":78113000000,"yr1985":52127000000},"geometry":{"type":"Point","coordinates":[114.7107239,3.6054671]}},{"type":"Feature","properties":{"id":15,"name":"Singapore","yr2015":"1.94E+11","yr2010":"1.47E+11","yr2005":"1.05E+11","yr2000":86365500000,"yr1995":61165200000,"yr1990":38260900000,"yr1985":23793600000},"geometry":{"type":"Point","coordinates":[103.8519897,1.29018]}},{"type":"Feature","properties":{"id":16,"name":"South Africa","yr2015":"3.25E+12","yr2010":"2.18E+12","yr2005":"1.34E+12","yr2000":"7.67E+11","yr1995":"4.52E+11","yr1990":"2.38E+11","yr1985":95197391688},"geometry":{"type":"Point","coordinates":[25.0803165,-29.0023098]}},{"type":"Feature","properties":{"id":17,"name":"Switzerland","yr2015":"4.27E+11","yr2010":"3.99E+11","yr2005":"3.50E+11","yr2000":"3.18E+11","yr1995":"2.83E+11","yr1990":"2.40E+11","yr1985":"1.87E+11"},"geometry":{"type":"Point","coordinates":[8.2291985,46.800209]}},{"type":"Feature","properties":{"id":18,"name":"United Kingdom","yr2015":"1.60E+12","yr2010":"1.37E+12","yr2005":"1.18E+12","yr2000":"9.07E+11","yr1995":"6.87E+11","yr1990":"5.22E+11","yr1985":"3.26E+11"},"geometry":{"type":"Point","coordinates":[-2.5505641,53.9438324]}},{"type":"Feature","properties":{"id":19,"name":"United States","yr2015":"1.49E+13","yr2010":"1.27E+13","yr2005":"1.07E+13","yr2000":"8.20E+12","yr1995":"6.10E+12","yr1990":"4.76E+12","yr1985":"3.40E+12"},"geometry":{"type":"Point","coordinates":[-98.9899826,39.4959145]}}]}